$GPGGA,133044.897,5231.116,N,01323.617,E,1,12,1.0,0.0,M,0.0,M,,*69
$GPGSA,A,3,01,02,03,04,05,06,07,08,09,10,11,12,1.0,1.0,1.0*30
$GPRMC,133044.897,A,5231.116,N,01323.617,E,005.5,336.4,310720,000.0,W*78
$GPGGA,133045.897,5231.117,N,01323.616,E,1,12,1.0,0.0,M,0.0,M,,*68
$GPGSA,A,3,01,02,03,04,05,06,07,08,09,10,11,12,1.0,1.0,1.0*30
$GPRMC,133045.897,A,5231.117,N,01323.616,E,006.2,267.8,310720,000.0,W*74
$GPGGA,133046.897,5231.117,N,01323.613,E,1,12,1.0,0.0,M,0.0,M,,*6E
$GPGSA,A,3,01,02,03,04,05,06,07,08,09,10,11,12,1.0,1.0,1.0*30
$GPRMC,133046.897,A,5231.117,N,01323.613,E,011.8,132.8,310720,000.0,W*7D
$GPGGA,133047.897,5231.114,N,01323.616,E,1,12,1.0,0.0,M,0.0,M,,*69
$GPGSA,A,3,01,02,03,04,05,06,07,08,09,10,11,12,1.0,1.0,1.0*30
$GPRMC,133047.897,A,5231.114,N,01323.616,E,010.7,283.1,310720,000.0,W*74
$GPGGA,133048.897,5231.115,N,01323.612,E,1,12,1.0,0.0,M,0.0,M,,*63
$GPGSA,A,3,01,02,03,04,05,06,07,08,09,10,11,12,1.0,1.0,1.0*30
$GPRMC,133048.897,A,5231.115,N,01323.612,E,009.3,170.2,310720,000.0,W*7E
$GPGGA,133049.897,5231.113,N,01323.612,E,1,12,1.0,0.0,M,0.0,M,,*64
$GPGSA,A,3,01,02,03,04,05,06,07,08,09,10,11,12,1.0,1.0,1.0*30
$GPRMC,133049.897,A,5231.113,N,01323.612,E,002.5,143.5,310720,000.0,W*73
$GPGGA,133050.897,5231.112,N,01323.613,E,1,12,1.0,0.0,M,0.0,M,,*6C
$GPGSA,A,3,01,02,03,04,05,06,07,08,09,10,11,12,1.0,1.0,1.0*30
$GPRMC,133050.897,A,5231.112,N,01323.613,E,020.2,067.1,310720,000.0,W*7F
$GPGGA,133051.897,5231.115,N,01323.620,E,1,12,1.0,0.0,M,0.0,M,,*6A
$GPGSA,A,3,01,02,03,04,05,06,07,08,09,10,11,12,1.0,1.0,1.0*30
$GPRMC,133051.897,A,5231.115,N,01323.620,E,023.4,221.7,310720,000.0,W*7A
$GPGGA,133052.897,5231.110,N,01323.615,E,1,12,1.0,0.0,M,0.0,M,,*6A
$GPGSA,A,3,01,02,03,04,05,06,07,08,09,10,11,12,1.0,1.0,1.0*30
$GPRMC,133052.897,A,5231.110,N,01323.615,E,012.5,034.5,310720,000.0,W*7D
$GPGGA,133053.897,5231.113,N,01323.617,E,1,12,1.0,0.0,M,0.0,M,,*6A
$GPGSA,A,3,01,02,03,04,05,06,07,08,09,10,11,12,1.0,1.0,1.0*30
$GPRMC,133053.897,A,5231.113,N,01323.617,E,012.1,135.8,310720,000.0,W*74
$GPGGA,133054.897,5231.110,N,01323.620,E,1,12,1.0,0.0,M,0.0,M,,*6A
$GPGSA,A,3,01,02,03,04,05,06,07,08,09,10,11,12,1.0,1.0,1.0*30
$GPRMC,133054.897,A,5231.110,N,01323.620,E,008.2,076.0,310720,000.0,W*72
$GPGGA,133055.897,5231.111,N,01323.624,E,1,12,1.0,0.0,M,0.0,M,,*6E
$GPGSA,A,3,01,02,03,04,05,06,07,08,09,10,11,12,1.0,1.0,1.0*30
$GPRMC,133055.897,A,5231.111,N,01323.624,E,012.3,292.1,310720,000.0,W*75
$GPGGA,133056.897,5231.113,N,01323.619,E,1,12,1.0,0.0,M,0.0,M,,*61
$GPGSA,A,3,01,02,03,04,05,06,07,08,09,10,11,12,1.0,1.0,1.0*30
$GPRMC,133056.897,A,5231.113,N,01323.619,E,007.5,084.2,310720,000.0,W*7E
$GPGGA,133057.897,5231.113,N,01323.622,E,1,12,1.0,0.0,M,0.0,M,,*68
$GPGSA,A,3,01,02,03,04,05,06,07,08,09,10,11,12,1.0,1.0,1.0*30
$GPRMC,133057.897,A,5231.113,N,01323.622,E,005.5,354.0,310720,000.0,W*79
$GPGGA,133058.897,5231.115,N,01323.622,E,1,12,1.0,0.0,M,0.0,M,,*61
$GPGSA,A,3,01,02,03,04,05,06,07,08,09,10,11,12,1.0,1.0,1.0*30
$GPRMC,133058.897,A,5231.115,N,01323.622,E,015.7,310.2,310720,000.0,W*71
$GPGGA,133059.897,5231.118,N,01323.618,E,1,12,1.0,0.0,M,0.0,M,,*64
$GPGSA,A,3,01,02,03,04,05,06,07,08,09,10,11,12,1.0,1.0,1.0*30
$GPRMC,133059.897,A,5231.118,N,01323.618,E,015.0,269.4,310720,000.0,W*7A
$GPGGA,133100.897,5231.118,N,01323.611,E,1,12,1.0,0.0,M,0.0,M,,*60
$GPGSA,A,3,01,02,03,04,05,06,07,08,09,10,11,12,1.0,1.0,1.0*30
$GPRMC,133100.897,A,5231.118,N,01323.611,E,006.0,198.9,310720,000.0,W*7C
$GPGGA,133101.897,5231.116,N,01323.610,E,1,12,1.0,0.0,M,0.0,M,,*6E
$GPGSA,A,3,01,02,03,04,05,06,07,08,09,10,11,12,1.0,1.0,1.0*30
$GPRMC,133101.897,A,5231.116,N,01323.610,E,020.8,175.5,310720,000.0,W*71
$GPGGA,133102.897,5231.111,N,01323.611,E,1,12,1.0,0.0,M,0.0,M,,*6B
$GPGSA,A,3,01,02,03,04,05,06,07,08,09,10,11,12,1.0,1.0,1.0*30
$GPRMC,133102.897,A,5231.111,N,01323.611,E,016.2,346.3,310720,000.0,W*7F
$GPGGA,133103.897,5231.115,N,01323.610,E,1,12,1.0,0.0,M,0.0,M,,*6F
$GPGSA,A,3,01,02,03,04,05,06,07,08,09,10,11,12,1.0,1.0,1.0*30
$GPRMC,133103.897,A,5231.115,N,01323.610,E,008.1,191.2,310720,000.0,W*7E
$GPGGA,133104.897,5231.113,N,01323.609,E,1,12,1.0,0.0,M,0.0,M,,*66
$GPGSA,A,3,01,02,03,04,05,06,07,08,09,10,11,12,1.0,1.0,1.0*30
$GPRMC,133104.897,A,5231.113,N,01323.609,E,006.6,347.5,310720,000.0,W*70
$GPGGA,133105.897,5231.115,N,01323.609,E,1,12,1.0,0.0,M,0.0,M,,*61
$GPGSA,A,3,01,02,03,04,05,06,07,08,09,10,11,12,1.0,1.0,1.0*30
$GPRMC,133105.897,A,5231.115,N,01323.609,E,003.8,203.2,310720,000.0,W*7A
$GPGGA,133106.897,5231.114,N,01323.609,E,1,12,1.0,0.0,M,0.0,M,,*63
$GPGSA,A,3,01,02,03,04,05,06,07,08,09,10,11,12,1.0,1.0,1.0*30
$GPRMC,133106.897,A,5231.114,N,01323.609,E,002.3,342.5,310720,000.0,W*71
$GPGGA,133107.897,5231.114,N,01323.608,E,1,12,1.0,0.0,M,0.0,M,,*63
$GPGSA,A,3,01,02,03,04,05,06,07,08,09,10,11,12,1.0,1.0,1.0*30
$GPRMC,133107.897,A,5231.114,N,01323.608,E,001.6,297.6,310720,000.0,W*7D
$GPGGA,133108.897,5231.115,N,01323.608,E,1,12,1.0,0.0,M,0.0,M,,*6D
$GPGSA,A,3,01,02,03,04,05,06,07,08,09,10,11,12,1.0,1.0,1.0*30
$GPRMC,133108.897,A,5231.115,N,01323.608,E,006.4,268.6,310720,000.0,W*76
$GPGGA,133109.897,5231.114,N,01323.605,E,1,12,1.0,0.0,M,0.0,M,,*60
$GPGSA,A,3,01,02,03,04,05,06,07,08,09,10,11,12,1.0,1.0,1.0*30
$GPRMC,133109.897,A,5231.114,N,01323.605,E,010.8,038.2,310720,000.0,W*73
$GPGGA,133110.897,5231.117,N,01323.607,E,1,12,1.0,0.0,M,0.0,M,,*69
$GPGSA,A,3,01,02,03,04,05,06,07,08,09,10,11,12,1.0,1.0,1.0*30
$GPRMC,133110.897,A,5231.117,N,01323.607,E,004.2,256.0,310720,000.0,W*7D
$GPGGA,133111.897,5231.117,N,01323.605,E,1,12,1.0,0.0,M,0.0,M,,*6A
$GPGSA,A,3,01,02,03,04,05,06,07,08,09,10,11,12,1.0,1.0,1.0*30
$GPRMC,133111.897,A,5231.117,N,01323.605,E,001.7,286.0,310720,000.0,W*73
$GPGGA,133112.897,5231.117,N,01323.605,E,999,999,999,444,M,333,M,,*69
$GPGSA,A,3,01,02,03,04,05,06,07,08,09,10,11,12,1.0,1.0,1.0*30
$GPRMC,133112.897,A,5231.117,N,01323.605,E,004.5,036.2,310720,000.0,W*7C
$GPGGA,133113.897,5231.118,N,01323.605,E,1,12,1.0,0.0,M,0.0,M,,*67
$GPGSA,A,3,01,02,03,04,05,06,07,08,09,10,11,12,1.0,1.0,1.0*30
$GPRMC,133113.897,A,5231.118,N,01323.605,E,010.0,075.2,310720,000.0,W*75
$GPGGA,133114.897,5231.119,N,01323.610,E,1,12,1.0,0.0,M,0.0,M,,*65
$GPGSA,A,3,01,02,03,04,05,06,07,08,09,10,11,92,9999,44,55*30
$GPRMC,133114.897,A,5231.119,N,01323.610,E,010.0,075.2,310720,000.0,W*77
%%%%%%
$GPGGA,162254.00,3723.02837,N,12159.39853,W,1,03,2.36,525.6,M,-25.6,M,,*65
$GPRMC,162254.00,A,3723.02837,N,12159.39853,W,0.820,188.36,110706,,,A*74
$GPVTG,188.36,T,,M,0.820,N,1.519,K,A*3F
$GPGSA,A,2,25,01,22,,,,,,,,,,2.56,2.36,1.00*02
$GPGSV,4,1,14,25,15,175,30,14,80,041,,19,38,259,14,01,52,223,18*76
$GPGSV,4,2,14,18,16,079,,11,19,312,,14,80,041,,21,04,135,25*7D
$GPGSV,4,3,14,15,27,134,18,03,25,222,,22,51,057,16,09,07,036,*79
$GPGSV,4,3,14,15,27,134,18,03,25,222,,22,51,057,16,09,07,036,*79
$GPGSV,4,4,14,07,01,181,,15,25,135,*76
$GPGLL,3723.02837,N,12159.39853,W,162254.00,A,A*7C
$GPZDA,162254.00,11,07,2006,00,00*63